[
  {
    "@context": "http://schema.org",
    "@type": "Organization",
    "name": "Domain",
    "url": "https://www.domain.com.au",
    "sameAs": [
      "https://www.facebook.com/domain.com.au",
      "https://twitter.com/domaincomau",
      "https://plus.google.com/+domaincomau",
      "https://www.linkedin.com/company/domain-com-au"
    ]
  },
  {
    "@context": "http://schema.org",
    "@type": "Event",
    "location": {
      "@type": "Residence",
      "geo": {
        "@type": "GeoCoordinates",
        "latitude": -33.71696,
        "longitude": 151.102219
      },
      "name": "2/2C Russell Ave, Wahroonga",
      "address": {
        "@type": "PostalAddress",
        "addressLocality": "WAHROONGA",
        "addressRegion": "NSW",
        "postalCode": "2076",
        "streetAddress": "2/2C Russell Ave"
      }
    },
    "name": "Auction",
    "description": "Auction at 2/2C Russell Ave",
    "url": "https://www.domain.com.au/2-2c-russell-ave-wahroonga-nsw-2076-2016321643",
    "image": "https://bucket-api.domain.com.au/v1/bucket/image/2016321643_1_1_200618_063025-w3658-h2439",
    "startDate": "2020-07-18T13:00:00"
  },
  {
    "@context": "http://schema.org",
    "@type": "Event",
    "location": {
      "@type": "Residence",
      "geo": {
        "@type": "GeoCoordinates",
        "latitude": -33.72312,
        "longitude": 151.117722
      },
      "name": "508/2C Munderah Street, Wahroonga",
      "address": {
        "@type": "PostalAddress",
        "addressLocality": "WAHROONGA",
        "addressRegion": "NSW",
        "postalCode": "2076",
        "streetAddress": "508/2C Munderah Street"
      }
    },
    "name": "Auction",
    "description": "Auction at 508/2C Munderah Street",
    "url": "https://www.domain.com.au/508-2c-munderah-street-wahroonga-nsw-2076-2016293525",
    "image": "https://bucket-api.domain.com.au/v1/bucket/image/2016293525_1_1_200603_054033-w4134-h2756",
    "startDate": "2020-06-27T12:00:00"
  },
  {
    "@context": "http://schema.org",
    "@type": "Event",
    "location": {
      "@type": "Residence",
      "geo": {
        "@type": "GeoCoordinates",
        "latitude": -33.7188339,
        "longitude": 151.115128
      },
      "name": "8/1625 Pacific Highway, Wahroonga",
      "address": {
        "@type": "PostalAddress",
        "addressLocality": "WAHROONGA",
        "addressRegion": "NSW",
        "postalCode": "2076",
        "streetAddress": "8/1625 Pacific Highway"
      }
    },
    "name": "Auction",
    "description": "Auction at 8/1625 Pacific Highway",
    "url": "https://www.domain.com.au/8-1625-pacific-highway-wahroonga-nsw-2076-2016290755",
    "image": "https://bucket-api.domain.com.au/v1/bucket/image/2016290755_1_1_200602_041555-w4000-h2670",
    "startDate": "2020-06-27T17:00:00"
  },
  {
    "@context": "http://schema.org",
    "@type": "Event",
    "location": {
      "@type": "Residence",
      "geo": {
        "@type": "GeoCoordinates",
        "latitude": -33.71757,
        "longitude": 151.115372
      },
      "name": "10/7-9 Neringah Av Sth, Wahroonga",
      "address": {
        "@type": "PostalAddress",
        "addressLocality": "WAHROONGA",
        "addressRegion": "NSW",
        "postalCode": "2076",
        "streetAddress": "10/7-9 Neringah Av Sth"
      }
    },
    "name": "Auction",
    "description": "Auction at 10/7-9 Neringah Av Sth",
    "url": "https://www.domain.com.au/10-7-9-neringah-av-sth-wahroonga-nsw-2076-2016294468",
    "image": "https://bucket-api.domain.com.au/v1/bucket/image/2016294468_1_1_200603_122511-w3600-h2403",
    "startDate": "2020-06-27T09:30:00"
  },
  {
    "@context": "http://schema.org",
    "@type": "Event",
    "location": {
      "@type": "Residence",
      "geo": {
        "@type": "GeoCoordinates",
        "latitude": -33.7092628,
        "longitude": 151.117722
      },
      "name": "128 Coonanbarra Road, Wahroonga",
      "address": {
        "@type": "PostalAddress",
        "addressLocality": "WAHROONGA",
        "addressRegion": "NSW",
        "postalCode": "2076",
        "streetAddress": "128 Coonanbarra Road"
      }
    },
    "name": "Auction",
    "description": "Auction at 128 Coonanbarra Road",
    "url": "https://www.domain.com.au/128-coonanbarra-road-wahroonga-nsw-2076-2016149888",
    "image": "https://bucket-api.domain.com.au/v1/bucket/image/2016149888_7_1_200311_111528-w5500-h3667",
    "startDate": "2020-05-30T10:00:00"
  },
  {
    "@context": "http://schema.org",
    "@type": "Event",
    "location": {
      "@type": "Residence",
      "geo": {
        "@type": "GeoCoordinates",
        "latitude": -33.7176743,
        "longitude": 151.108047
      },
      "name": "4/5 Pacific Highway, Wahroonga",
      "address": {
        "@type": "PostalAddress",
        "addressLocality": "WAHROONGA",
        "addressRegion": "NSW",
        "postalCode": "2076",
        "streetAddress": "4/5 Pacific Highway"
      }
    },
    "name": "Auction",
    "description": "Auction at 4/5 Pacific Highway",
    "url": "https://www.domain.com.au/4-5-pacific-highway-wahroonga-nsw-2076-2016073820",
    "image": "https://bucket-api.domain.com.au/v1/bucket/image/2016073820_1_1_200212_061533-w4134-h2756",
    "startDate": "2020-03-14T15:00:00"
  },
  {
    "@context": "http://schema.org",
    "@type": "Event",
    "location": {
      "@type": "Residence",
      "geo": {
        "@type": "GeoCoordinates",
        "latitude": -33.71684,
        "longitude": 151.105515
      },
      "name": "1/31a Russell Avenue, Wahroonga",
      "address": {
        "@type": "PostalAddress",
        "addressLocality": "WAHROONGA",
        "addressRegion": "NSW",
        "postalCode": "2076",
        "streetAddress": "1/31a Russell Avenue"
      }
    },
    "name": "Auction",
    "description": "Auction at 1/31a Russell Avenue",
    "url": "https://www.domain.com.au/1-31a-russell-avenue-wahroonga-nsw-2076-2016206746",
    "image": "https://bucket-api.domain.com.au/v1/bucket/image/2016206746_1_1_200408_071523-w3759-h2506",
    "startDate": "2020-05-14T15:00:00"
  },
  {
    "@context": "http://schema.org",
    "@type": "Event",
    "location": {
      "@type": "Residence",
      "geo": {
        "@type": "GeoCoordinates",
        "latitude": -33.71696,
        "longitude": 151.102219
      },
      "name": "2/2C Russell Ave, Wahroonga",
      "address": {
        "@type": "PostalAddress",
        "addressLocality": "WAHROONGA",
        "addressRegion": "NSW",
        "postalCode": "2076",
        "streetAddress": "2/2C Russell Ave"
      }
    },
    "name": "Inspection",
    "description": "Inspect 2/2C Russell Ave",
    "url": "https://www.domain.com.au/2-2c-russell-ave-wahroonga-nsw-2076-2016321643",
    "image": "https://bucket-api.domain.com.au/v1/bucket/image/2016321643_1_1_200618_063025-w3658-h2439",
    "startDate": "2020-07-04T12:30:00",
    "endDate": "2020-07-04T13:00:00"
  },
  {
    "@context": "http://schema.org",
    "@type": "Event",
    "location": {
      "@type": "Residence",
      "geo": {
        "@type": "GeoCoordinates",
        "latitude": -33.7188339,
        "longitude": 151.115128
      },
      "name": "8/1625 Pacific Highway, Wahroonga",
      "address": {
        "@type": "PostalAddress",
        "addressLocality": "WAHROONGA",
        "addressRegion": "NSW",
        "postalCode": "2076",
        "streetAddress": "8/1625 Pacific Highway"
      }
    },
    "name": "Inspection",
    "description": "Inspect 8/1625 Pacific Highway",
    "url": "https://www.domain.com.au/8-1625-pacific-highway-wahroonga-nsw-2076-2016290755",
    "image": "https://bucket-api.domain.com.au/v1/bucket/image/2016290755_1_1_200602_041555-w4000-h2670",
    "startDate": "2020-06-27T11:20:00",
    "endDate": "2020-06-27T11:50:00"
  },
  {
    "@context": "http://schema.org",
    "@type": "Event",
    "location": {
      "@type": "Residence",
      "geo": {
        "@type": "GeoCoordinates",
        "latitude": -33.6996536,
        "longitude": 151.126175
      },
      "name": "11/153-165 Grosvenor Street, Wahroonga",
      "address": {
        "@type": "PostalAddress",
        "addressLocality": "WAHROONGA",
        "addressRegion": "NSW",
        "postalCode": "2076",
        "streetAddress": "11/153-165 Grosvenor Street"
      }
    },
    "name": "Inspection",
    "description": "Inspect 11/153-165 Grosvenor Street",
    "url": "https://www.domain.com.au/11-153-165-grosvenor-street-wahroonga-nsw-2076-2016308960",
    "image": "https://bucket-api.domain.com.au/v1/bucket/image/2016308960_1_1_200611_084254-w4500-h3000",
    "startDate": "2020-06-24T11:00:00",
    "endDate": "2020-06-24T11:40:00"
  },
  {
    "@context": "http://schema.org",
    "@type": "Residence",
    "address": {
      "@type": "PostalAddress",
      "streetAddress": "2/2C Russell Ave",
      "addressLocality": "WAHROONGA",
      "addressRegion": "NSW",
      "postalCode": "2076"
    }
  },
  {
    "@context": "http://schema.org",
    "@type": "Residence",
    "address": {
      "@type": "PostalAddress",
      "streetAddress": "508/2C Munderah Street",
      "addressLocality": "WAHROONGA",
      "addressRegion": "NSW",
      "postalCode": "2076"
    }
  },
  {
    "@context": "http://schema.org",
    "@type": "Residence",
    "address": {
      "@type": "PostalAddress",
      "streetAddress": "8/1625 Pacific Highway",
      "addressLocality": "WAHROONGA",
      "addressRegion": "NSW",
      "postalCode": "2076"
    }
  },
  {
    "@context": "http://schema.org",
    "@type": "Residence",
    "address": {
      "@type": "PostalAddress",
      "streetAddress": "18 Pacific Highway",
      "addressLocality": "WAHROONGA",
      "addressRegion": "NSW",
      "postalCode": "2076"
    }
  },
  {
    "@context": "http://schema.org",
    "@type": "Residence",
    "address": {
      "@type": "PostalAddress",
      "streetAddress": "11/153-165 Grosvenor Street",
      "addressLocality": "WAHROONGA",
      "addressRegion": "NSW",
      "postalCode": "2076"
    }
  },
  {
    "@context": "http://schema.org",
    "@type": "Residence",
    "address": {
      "@type": "PostalAddress",
      "streetAddress": "2/6 Coonanbarra Road",
      "addressLocality": "WAHROONGA",
      "addressRegion": "NSW",
      "postalCode": "2076"
    }
  },
  {
    "@context": "http://schema.org",
    "@type": "Residence",
    "address": {
      "@type": "PostalAddress",
      "streetAddress": "10/7-9 Neringah Av Sth",
      "addressLocality": "WAHROONGA",
      "addressRegion": "NSW",
      "postalCode": "2076"
    }
  },
  {
    "@context": "http://schema.org",
    "@type": "Residence",
    "address": {
      "@type": "PostalAddress",
      "streetAddress": "120 Fox Valley Road",
      "addressLocality": "WAHROONGA",
      "addressRegion": "NSW",
      "postalCode": "2076"
    }
  },
  {
    "@context": "http://schema.org",
    "@type": "Residence",
    "address": {
      "@type": "PostalAddress",
      "streetAddress": "3/1740 Pacific Highway",
      "addressLocality": "WAHROONGA",
      "addressRegion": "NSW",
      "postalCode": "2076"
    }
  },
  {
    "@context": "http://schema.org",
    "@type": "Residence",
    "address": {
      "@type": "PostalAddress",
      "streetAddress": "128 Coonanbarra Road",
      "addressLocality": "WAHROONGA",
      "addressRegion": "NSW",
      "postalCode": "2076"
    }
  },
  {
    "@context": "http://schema.org",
    "@type": "Residence",
    "address": {
      "@type": "PostalAddress",
      "streetAddress": "15/11-21 Woniora Avenue",
      "addressLocality": "WAHROONGA",
      "addressRegion": "NSW",
      "postalCode": "2076"
    }
  },
  {
    "@context": "http://schema.org",
    "@type": "Residence",
    "address": {
      "@type": "PostalAddress",
      "streetAddress": "4/1 Burns Road",
      "addressLocality": "WAHROONGA",
      "addressRegion": "NSW",
      "postalCode": "2076"
    }
  },
  {
    "@context": "http://schema.org",
    "@type": "Residence",
    "address": {
      "@type": "PostalAddress",
      "streetAddress": "4/5 Pacific Highway",
      "addressLocality": "WAHROONGA",
      "addressRegion": "NSW",
      "postalCode": "2076"
    }
  },
  {
    "@context": "http://schema.org",
    "@type": "Residence",
    "address": {
      "@type": "PostalAddress",
      "streetAddress": "12/1683 Pacific Highway",
      "addressLocality": "WAHROONGA",
      "addressRegion": "NSW",
      "postalCode": "2076"
    }
  },
  {
    "@context": "http://schema.org",
    "@type": "Residence",
    "address": {
      "@type": "PostalAddress",
      "streetAddress": "7 Chifley Close",
      "addressLocality": "WAHROONGA",
      "addressRegion": "NSW",
      "postalCode": "2076"
    }
  },
  {
    "@context": "http://schema.org",
    "@type": "Residence",
    "address": {
      "@type": "PostalAddress",
      "streetAddress": "32 Ingalara Avenue",
      "addressLocality": "WAHROONGA",
      "addressRegion": "NSW",
      "postalCode": "2076"
    }
  },
  {
    "@context": "http://schema.org",
    "@type": "Residence",
    "address": {
      "@type": "PostalAddress",
      "streetAddress": "11 Morris Avenue",
      "addressLocality": "WAHROONGA",
      "addressRegion": "NSW",
      "postalCode": "2076"
    }
  },
  {
    "@context": "http://schema.org",
    "@type": "Residence",
    "address": {
      "@type": "PostalAddress",
      "streetAddress": "96 Ada Avenue South",
      "addressLocality": "WAHROONGA",
      "addressRegion": "NSW",
      "postalCode": "2076"
    }
  },
  {
    "@context": "http://schema.org",
    "@type": "Residence",
    "address": {
      "@type": "PostalAddress",
      "streetAddress": "91 Ada Avenue",
      "addressLocality": "WAHROONGA",
      "addressRegion": "NSW",
      "postalCode": "2076"
    }
  },
  {
    "@context": "http://schema.org",
    "@type": "Residence",
    "address": {
      "@type": "PostalAddress",
      "streetAddress": "1/31a Russell Avenue",
      "addressLocality": "WAHROONGA",
      "addressRegion": "NSW",
      "postalCode": "2076"
    }
  },
  {
    "@context": "http://schema.org",
    "@type": "BreadcrumbList",
    "itemListElement": [
      {
        "@type": "ListItem",
        "position": 1,
        "item": {
          "@id": "https://www.domain.com.au/sold-listings/",
          "name": "Sold"
        }
      },
      {
        "@type": "ListItem",
        "position": 2,
        "item": {
          "@id": "https://www.domain.com.au/sold-listings/nsw/",
          "name": "NSW"
        }
      },
      {
        "@type": "ListItem",
        "position": 3,
        "item": {
          "@id": "https://www.domain.com.au/sold-listings/wahroonga-nsw-2076/",
          "name": "Wahroonga"
        }
      }
    ]
  }
]
